{"type":"FeatureCollection","crs":{"type":"name","properties":{"name":"EPSG:4326"}},"features":[{"type":"Feature","geometry":{"type":"Point","coordinates":[4.44711,51.1281]},"properties":{"categorie":"Sportlokaal","categorietxt":"Sportlokaal","id":129080,"naam":"Fitnesslokaal Fitup (Fitnesscentrum Fit-up)","via":"http://poi.api.geopunt.be/v1/core?id=129080","adres":"Mechelsesteenweg 192, 2550 Kontich","x":4.44711,"y":51.1281}},{"type":"Feature","geometry":{"type":"Point","coordinates":[4.45355,51.1295]},"properties":{"categorie":"Sportlokaal","categorietxt":"Sportlokaal","id":129083,"naam":"Judo-en danslokaal Duffelsesteenweg (Sportcentrum De Nachtegaal)","via":"http://poi.api.geopunt.be/v1/core?id=129083","adres":"Duffelsesteenweg 145, 2550 Kontich","x":4.45355,"y":51.1295}},{"type":"Feature","geometry":{"type":"Point","coordinates":[4.44288,51.1349]},"properties":{"categorie":"Sportlokaal","categorietxt":"Sportlokaal","id":129104,"naam":"Sportlokaal 1 Sint-Jozefinstituut (Sint Jozefinstituut)","via":"http://poi.api.geopunt.be/v1/core?id=129104","adres":"Gemeenteplein 8, 2550 Kontich","x":4.44288,"y":51.1349}},{"type":"Feature","geometry":{"type":"Point","coordinates":[4.44359,51.1343]},"properties":{"categorie":"Sportlokaal","categorietxt":"Sportlokaal","id":129105,"naam":"Sportlokaal 2 Sint-Jozefinstituut (Sint Jozefinstituut)","via":"http://poi.api.geopunt.be/v1/core?id=129105","adres":"Gemeenteplein 8, 2550 Kontich","x":4.44359,"y":51.1343}},{"type":"Feature","geometry":{"type":"Point","coordinates":[4.44833,51.1409]},"properties":{"categorie":"Sportlokaal","categorietxt":"Sportlokaal","id":129106,"naam":"Sportlokaal 1 Altena Instituut (Altena Instituut)","via":"http://poi.api.geopunt.be/v1/core?id=129106","adres":"Antwerpsesteenweg 73, 2550 Kontich","x":4.44833,"y":51.1409}},{"type":"Feature","geometry":{"type":"Point","coordinates":[4.44304,51.136]},"properties":{"categorie":"Sportlokaal","categorietxt":"Sportlokaal","id":129107,"naam":"Sportlokaal Basisschool Abraham Hans (Jongensschool Abraham Hans)","via":"http://poi.api.geopunt.be/v1/core?id=129107","adres":"Molenstraat 32, 2550 Kontich","x":4.44304,"y":51.136}},{"type":"Feature","geometry":{"type":"Point","coordinates":[4.47373,51.1277]},"properties":{"categorie":"Sportlokaal","categorietxt":"Sportlokaal","id":129108,"naam":"Sportlokaal Gesubsidieerde Lagere Montfortschool (Sportlokaal gesubsidieerde lagere Montfortschool)","via":"http://poi.api.geopunt.be/v1/core?id=129108","adres":"Hoge Akker 16, 2550 Kontich","x":4.47373,"y":51.1277}},{"type":"Feature","geometry":{"type":"Point","coordinates":[4.4383,51.1255]},"properties":{"categorie":"Sportlokaal","categorietxt":"Sportlokaal","id":129109,"naam":"Sportlokaal PC Ideal (Petanqueclub Ideal)","via":"http://poi.api.geopunt.be/v1/core?id=129109","adres":"Keizershoek 196B, 2550 Kontich","x":4.4383,"y":51.1255}},{"type":"Feature","geometry":{"type":"Point","coordinates":[4.45382,51.1167]},"properties":{"categorie":"Sportlokaal","categorietxt":"Sportlokaal","id":129110,"naam":"Sportlokaal 1 Shooting World (Schutterslokalen Shooting World)","via":"http://poi.api.geopunt.be/v1/core?id=129110","adres":"Zilverbergstraat 5, 2550 Kontich","x":4.45382,"y":51.1167}},{"type":"Feature","geometry":{"type":"Point","coordinates":[4.45386,51.1166]},"properties":{"categorie":"Sportlokaal","categorietxt":"Sportlokaal","id":129111,"naam":"Sportlokaal 2 Shooting World (Schutterslokalen Shooting World)","via":"http://poi.api.geopunt.be/v1/core?id=129111","adres":"Zilverbergstraat 5, 2550 Kontich","x":4.45386,"y":51.1166}},{"type":"Feature","geometry":{"type":"Point","coordinates":[4.45393,51.1166]},"properties":{"categorie":"Sportlokaal","categorietxt":"Sportlokaal","id":129112,"naam":"Sportlokaal 3 Shooting World (Schutterslokalen Shooting World)","via":"http://poi.api.geopunt.be/v1/core?id=129112","adres":"Zilverbergstraat 5, 2550 Kontich","x":4.45393,"y":51.1166}},{"type":"Feature","geometry":{"type":"Point","coordinates":[4.43446,51.1291]},"properties":{"categorie":"Sportlokaal","categorietxt":"Sportlokaal","id":129113,"naam":"Sportlokaal Sint Rita College (RIKO) (Sint-Rita College)","via":"http://poi.api.geopunt.be/v1/core?id=129113","adres":"Pierstraat 3, 2550 Kontich","x":4.43446,"y":51.1291}},{"type":"Feature","geometry":{"type":"Point","coordinates":[4.44286,51.1356]},"properties":{"categorie":"Sportlokaal","categorietxt":"Sportlokaal","id":129114,"naam":"Sportlokaal Sparta (Sportlokaal Sparta)","via":"http://poi.api.geopunt.be/v1/core?id=129114","adres":"Molenstraat 29, 2550 Kontich","x":4.44286,"y":51.1356}},{"type":"Feature","geometry":{"type":"Point","coordinates":[4.45175,51.1071]},"properties":{"categorie":"Sportlokaal","categorietxt":"Sportlokaal","id":129138,"naam":"Sportlokaal Gesubsidieerde Vrije Basisschool Kontich(Waarsloos) (Sint-Michielsschool)","via":"http://poi.api.geopunt.be/v1/core?id=129138","adres":"Ferdinand Maesstraat 30, 2550 Kontich","x":4.45175,"y":51.1071}},{"type":"Feature","geometry":{"type":"Point","coordinates":[4.46796,51.1382]},"properties":{"categorie":"Sportlokaal","categorietxt":"Sportlokaal","id":139774,"naam":"Danszaal 1 Dansstudio Het DansAteljee (paarse zaal) (Dansstudio DansAteljee)","via":"http://poi.api.geopunt.be/v1/core?id=139774","adres":"Meylweg 41B, 2550 Kontich","x":4.46796,"y":51.1382}},{"type":"Feature","geometry":{"type":"Point","coordinates":[4.46764,51.1381]},"properties":{"categorie":"Sportlokaal","categorietxt":"Sportlokaal","id":139775,"naam":"Danszaal 2 Dansstudio Het DansAteljee (gele zaal) (Dansstudio DansAteljee)","via":"http://poi.api.geopunt.be/v1/core?id=139775","adres":"Meylweg 41B, 2550 Kontich","x":4.46764,"y":51.1381}},{"type":"Feature","geometry":{"type":"Point","coordinates":[4.44772,51.1342]},"properties":{"categorie":"Sportlokaal","categorietxt":"Sportlokaal","id":196102,"naam":"Snookerlokaal Trianon Kontich (Trianon Snooker)","via":"http://poi.api.geopunt.be/v1/core?id=196102","adres":"Ooststatiestraat 3, 2550 Kontich","x":4.44772,"y":51.1342}},{"type":"Feature","geometry":{"type":"Point","coordinates":[4.45175,51.1387]},"properties":{"categorie":"Sportlokaal","categorietxt":"Sportlokaal","id":204861,"naam":"Sportlokaal 2 Altena Instituut","via":"http://poi.api.geopunt.be/v1/core?id=204861","adres":"Antwerpsesteenweg 73, 2550 Kontich","x":4.45175,"y":51.1387}},{"type":"Feature","geometry":{"type":"Point","coordinates":[4.45686,51.1369]},"properties":{"categorie":"Sportlokaal","categorietxt":"Sportlokaal","id":234773,"naam":"Fitnesslokaal Basic-Fit Kontich (Basic-Fit Kontich)","via":"http://poi.api.geopunt.be/v1/core?id=234773","adres":"Koningin Astridlaan 87, 2550 Kontich","x":4.45686,"y":51.1369}},{"type":"Feature","geometry":{"type":"Point","coordinates":[4.4672,51.1389]},"properties":{"categorie":"Sportlokaal","categorietxt":"Sportlokaal","id":234818,"naam":"Schietstand Zilverberg (Schietstand Zilverberg)","via":"http://poi.api.geopunt.be/v1/core?id=234818","adres":"Meylweg 43, 2550 Kontich","x":4.4672,"y":51.1389}},{"type":"Feature","geometry":{"type":"Point","coordinates":[4.46781,51.138]},"properties":{"categorie":"Sportlokaal","categorietxt":"Sportlokaal","id":236389,"naam":"Danszaal 3 Dansstudio Het DansAteljee (groene zaal) (Dansstudio DansAteljee)","via":"http://poi.api.geopunt.be/v1/core?id=236389","adres":"Meylweg 41B, 2550 Kontich","x":4.46781,"y":51.138}},{"type":"Feature","geometry":{"type":"Point","coordinates":[4.46796,51.138]},"properties":{"categorie":"Sportlokaal","categorietxt":"Sportlokaal","id":236390,"naam":"Danszaal 4 Dansstudio Het DansAteljee (roze zaal) (Dansstudio DansAteljee)","via":"http://poi.api.geopunt.be/v1/core?id=236390","adres":"Meylweg 41B, 2550 Kontich","x":4.46796,"y":51.138}},{"type":"Feature","geometry":{"type":"Point","coordinates":[4.46811,51.1381]},"properties":{"categorie":"Sportlokaal","categorietxt":"Sportlokaal","id":236391,"naam":"Danszaal 5 Dansstudio Het DansAteljee (oranje zaal) (Dansstudio DansAteljee)","via":"http://poi.api.geopunt.be/v1/core?id=236391","adres":"Meylweg 41B, 2550 Kontich","x":4.46811,"y":51.1381}}]}