{"type":"FeatureCollection","crs":{"type":"name","properties":{"name":"EPSG:4326"}},"features":[{"type":"Feature","geometry":{"type":"Point","coordinates":[4.46655,51.1399]},"properties":{"categorie":"OpenluchtSportveld","categorietxt":"Openlucht sportveld","id":129065,"naam":"A- Voetbalveld FC VDP Sport VZW (VDP Sport vzw)","via":"http://poi.api.geopunt.be/v1/core?id=129065","adres":"Meylweg 52, 2550 Kontich","x":4.46655,"y":51.1399}},{"type":"Feature","geometry":{"type":"Point","coordinates":[4.4513,51.1312]},"properties":{"categorie":"OpenluchtSportveld","categorietxt":"Openlucht sportveld","id":129066,"naam":"A- Voetbalveld KFC Kontich (Voetbalvelden Duffelsesteenweg Kontich)","via":"http://poi.api.geopunt.be/v1/core?id=129066","adres":"Duffelsesteenweg 73, 2550 Kontich","x":4.4513,"y":51.1312}},{"type":"Feature","geometry":{"type":"Point","coordinates":[4.43234,51.128]},"properties":{"categorie":"OpenluchtSportveld","categorietxt":"Openlucht sportveld","id":129067,"naam":"A- Voetbalveld Sint Rita College Kontich (RIKO) (Sint-Rita College)","via":"http://poi.api.geopunt.be/v1/core?id=129067","adres":"Pierstraat 3, 2550 Kontich","x":4.43234,"y":51.128}},{"type":"Feature","geometry":{"type":"Point","coordinates":[4.46483,51.1397]},"properties":{"categorie":"OpenluchtSportveld","categorietxt":"Openlucht sportveld","id":129068,"naam":"B- Voetbalveld FC VDP Sport VZW (VDP Sport vzw)","via":"http://poi.api.geopunt.be/v1/core?id=129068","adres":"Meylweg 52, 2550 Kontich","x":4.46483,"y":51.1397}},{"type":"Feature","geometry":{"type":"Point","coordinates":[4.45198,51.1301]},"properties":{"categorie":"OpenluchtSportveld","categorietxt":"Openlucht sportveld","id":129069,"naam":"B- Voetbalveld KFC Kontich (Voetbalvelden Duffelsesteenweg Kontich)","via":"http://poi.api.geopunt.be/v1/core?id=129069","adres":"Duffelsesteenweg 73, 2550 Kontich","x":4.45198,"y":51.1301}},{"type":"Feature","geometry":{"type":"Point","coordinates":[4.44338,51.1294]},"properties":{"categorie":"OpenluchtSportveld","categorietxt":"Openlucht sportveld","id":129071,"naam":"Basketbalveld Basisschool De Schans (Basisschool De Schans)","via":"http://poi.api.geopunt.be/v1/core?id=129071","adres":"Kruisschanslei 42, 2550 Kontich","x":4.44338,"y":51.1294}},{"type":"Feature","geometry":{"type":"Point","coordinates":[4.4342,51.1292]},"properties":{"categorie":"OpenluchtSportveld","categorietxt":"Openlucht sportveld","id":129073,"naam":"Basketbalveld Sint Rita College Kontich (RIKO) (Sint-Rita College)","via":"http://poi.api.geopunt.be/v1/core?id=129073","adres":"Pierstraat 3, 2550 Kontich","x":4.4342,"y":51.1292}},{"type":"Feature","geometry":{"type":"Point","coordinates":[4.44661,51.1421]},"properties":{"categorie":"OpenluchtSportveld","categorietxt":"Openlucht sportveld","id":129074,"naam":"Basketbalvelden VTI Kontich (VTI)","via":"http://poi.api.geopunt.be/v1/core?id=129074","adres":"Edegemsesteenweg 129, 2550 Kontich","x":4.44661,"y":51.1421}},{"type":"Feature","geometry":{"type":"Point","coordinates":[4.45177,51.1282]},"properties":{"categorie":"OpenluchtSportveld","categorietxt":"Openlucht sportveld","id":129075,"naam":"Beachvolleybalveld Kokaz (Beachvolleybalveld Kokaz)","via":"http://poi.api.geopunt.be/v1/core?id=129075","adres":"Duffelsesteenweg 68, 2550 Kontich","x":4.45177,"y":51.1282}},{"type":"Feature","geometry":{"type":"Point","coordinates":[4.43158,51.1275]},"properties":{"categorie":"OpenluchtSportveld","categorietxt":"Openlucht sportveld","id":129076,"naam":"BMX-parcours Sint Rita College Kontich (RIKO) (Sint-Rita College)","via":"http://poi.api.geopunt.be/v1/core?id=129076","adres":"Pierstraat 3, 2550 Kontich","x":4.43158,"y":51.1275}},{"type":"Feature","geometry":{"type":"Point","coordinates":[4.46869,51.1394]},"properties":{"categorie":"OpenluchtSportveld","categorietxt":"Openlucht sportveld","id":129077,"naam":"C- Voetbalveld FC VDP Sport VZW (VDP Sport vzw)","via":"http://poi.api.geopunt.be/v1/core?id=129077","adres":"Meylweg 52, 2550 Kontich","x":4.46869,"y":51.1394}},{"type":"Feature","geometry":{"type":"Point","coordinates":[4.45049,51.1319]},"properties":{"categorie":"OpenluchtSportveld","categorietxt":"Openlucht sportveld","id":129078,"naam":"C- Voetbalveld KFC Kontich (Voetbalvelden Duffelsesteenweg Kontich)","via":"http://poi.api.geopunt.be/v1/core?id=129078","adres":"Duffelsesteenweg 73, 2550 Kontich","x":4.45049,"y":51.1319}},{"type":"Feature","geometry":{"type":"Point","coordinates":[4.43137,51.1222]},"properties":{"categorie":"OpenluchtSportveld","categorietxt":"Openlucht sportveld","id":129081,"naam":"Hondensportveld Hondenschool Sloeber (Hondenschool Sloeber)","via":"http://poi.api.geopunt.be/v1/core?id=129081","adres":"Keizershoek 284, 2550 Kontich","x":4.43137,"y":51.1222}},{"type":"Feature","geometry":{"type":"Point","coordinates":[4.48445,51.1174]},"properties":{"categorie":"OpenluchtSportveld","categorietxt":"Openlucht sportveld","id":129082,"naam":"Hondensportveld Lobo Franky (Hondensportveld Lobo Franky)","via":"http://poi.api.geopunt.be/v1/core?id=129082","adres":"Klokkestraat 49, 2550 Kontich","x":4.48445,"y":51.1174}},{"type":"Feature","geometry":{"type":"Point","coordinates":[4.46821,51.1398]},"properties":{"categorie":"OpenluchtSportveld","categorietxt":"Openlucht sportveld","id":129087,"naam":"Oefenterrein FC VDP Sport VZW (VDP Sport vzw)","via":"http://poi.api.geopunt.be/v1/core?id=129087","adres":"Meylweg 52, 2550 Kontich","x":4.46821,"y":51.1398}},{"type":"Feature","geometry":{"type":"Point","coordinates":[4.45653,51.104]},"properties":{"categorie":"OpenluchtSportveld","categorietxt":"Openlucht sportveld","id":129088,"naam":"Overdekt Petanqueterrein Veteranen Waarloos (Veteranen Waarloos)","via":"http://poi.api.geopunt.be/v1/core?id=129088","adres":"Ferdinand Maesstraat 95, 2550 Kontich","x":4.45653,"y":51.104}},{"type":"Feature","geometry":{"type":"Point","coordinates":[4.44503,51.1323]},"properties":{"categorie":"OpenluchtSportveld","categorietxt":"Openlucht sportveld","id":129090,"naam":"Petanqueterrein De Hazelaar (Petanque De Hazelaar)","via":"http://poi.api.geopunt.be/v1/core?id=129090","adres":"Witvrouwenveldstraat 1, 2550 Kontich","x":4.44503,"y":51.1323}},{"type":"Feature","geometry":{"type":"Point","coordinates":[4.43783,51.1254]},"properties":{"categorie":"OpenluchtSportveld","categorietxt":"Openlucht sportveld","id":129091,"naam":"Petanqueterrein PC Ideal (Petanqueclub Ideal)","via":"http://poi.api.geopunt.be/v1/core?id=129091","adres":"Keizershoek 196B, 2550 Kontich","x":4.43783,"y":51.1254}},{"type":"Feature","geometry":{"type":"Point","coordinates":[4.4714,51.1279]},"properties":{"categorie":"OpenluchtSportveld","categorietxt":"Openlucht sportveld","id":129092,"naam":"Petanqueterrein Pronkenberg (Petanque Pronkenberg)","via":"http://poi.api.geopunt.be/v1/core?id=129092","adres":"Pronkenbergstraat 1, 2550 Kontich","x":4.4714,"y":51.1279}},{"type":"Feature","geometry":{"type":"Point","coordinates":[4.44884,51.1398]},"properties":{"categorie":"OpenluchtSportveld","categorietxt":"Openlucht sportveld","id":129093,"naam":"Polyvalent sportveld Altena Instituut Kontich (Altena Instituut)","via":"http://poi.api.geopunt.be/v1/core?id=129093","adres":"Antwerpsesteenweg 73, 2550 Kontich","x":4.44884,"y":51.1398}},{"type":"Feature","geometry":{"type":"Point","coordinates":[4.45241,51.1308]},"properties":{"categorie":"OpenluchtSportveld","categorietxt":"Openlucht sportveld","id":129094,"naam":"Polyvalent sportveld Duffelsesteenweg Kontich (Sportcentrum De Nachtegaal)","via":"http://poi.api.geopunt.be/v1/core?id=129094","adres":"Duffelsesteenweg 145, 2550 Kontich","x":4.45241,"y":51.1308}},{"type":"Feature","geometry":{"type":"Point","coordinates":[4.44411,51.117]},"properties":{"categorie":"OpenluchtSportveld","categorietxt":"Openlucht sportveld","id":129095,"naam":"Polyvalent sportveld Jan-Baptist Reykerslaan Kontich (Polyvalent sportveld J.B Reyckerslaan)","via":"http://poi.api.geopunt.be/v1/core?id=129095","adres":"Jan-Baptist Reykerslaan, 2550 Kontich","x":4.44411,"y":51.117}},{"type":"Feature","geometry":{"type":"Point","coordinates":[4.44338,51.1363]},"properties":{"categorie":"OpenluchtSportveld","categorietxt":"Openlucht sportveld","id":129096,"naam":"Polyvalent sportveld Jongensschool Kontich (Jongensschool Abraham Hans)","via":"http://poi.api.geopunt.be/v1/core?id=129096","adres":"Molenstraat 32, 2550 Kontich","x":4.44338,"y":51.1363}},{"type":"Feature","geometry":{"type":"Point","coordinates":[4.47363,51.1275]},"properties":{"categorie":"OpenluchtSportveld","categorietxt":"Openlucht sportveld","id":129097,"naam":"Polyvalent sportveld Montfortstraat (Polyvalent sportveld Montfortstraat)","via":"http://poi.api.geopunt.be/v1/core?id=129097","adres":"Montfortstraat, 2550 Kontich","x":4.47363,"y":51.1275}},{"type":"Feature","geometry":{"type":"Point","coordinates":[4.4469,51.1427]},"properties":{"categorie":"OpenluchtSportveld","categorietxt":"Openlucht sportveld","id":129098,"naam":"Polyvalent sportveld VTI Kontich (VTI)","via":"http://poi.api.geopunt.be/v1/core?id=129098","adres":"Edegemsesteenweg 129, 2550 Kontich","x":4.4469,"y":51.1427}},{"type":"Feature","geometry":{"type":"Point","coordinates":[4.4519,51.1315]},"properties":{"categorie":"OpenluchtSportveld","categorietxt":"Openlucht sportveld","id":129099,"naam":"Skateterrein Kontich (Sportcentrum De Nachtegaal)","via":"http://poi.api.geopunt.be/v1/core?id=129099","adres":"Duffelsesteenweg 145, 2550 Kontich","x":4.4519,"y":51.1315}},{"type":"Feature","geometry":{"type":"Point","coordinates":[4.44544,51.1395]},"properties":{"categorie":"OpenluchtSportveld","categorietxt":"Openlucht sportveld","id":129115,"naam":"Sportveld Edegemsesteenweg Kontich (Sportveld Edegemsesteenweg)","via":"http://poi.api.geopunt.be/v1/core?id=129115","adres":"Edegemsesteenweg, 2550 Kontich","x":4.44544,"y":51.1395}},{"type":"Feature","geometry":{"type":"Point","coordinates":[4.46684,51.1403]},"properties":{"categorie":"OpenluchtSportveld","categorietxt":"Openlucht sportveld","id":129119,"naam":"Tennisveld 1 FC VDP Sport VZW (VDP Sport vzw)","via":"http://poi.api.geopunt.be/v1/core?id=129119","adres":"Meylweg 52, 2550 Kontich","x":4.46684,"y":51.1403}},{"type":"Feature","geometry":{"type":"Point","coordinates":[4.46732,51.1371]},"properties":{"categorie":"OpenluchtSportveld","categorietxt":"Openlucht sportveld","id":129120,"naam":"Tennisveld 1 TC De Meyl (Tenniscentrum De Meyl)","via":"http://poi.api.geopunt.be/v1/core?id=129120","adres":"Meylweg, 2550 Kontich","x":4.46732,"y":51.1371}},{"type":"Feature","geometry":{"type":"Point","coordinates":[4.46712,51.1401]},"properties":{"categorie":"OpenluchtSportveld","categorietxt":"Openlucht sportveld","id":129121,"naam":"Tennisveld 2 FC VDP Sport VZW (VDP Sport vzw)","via":"http://poi.api.geopunt.be/v1/core?id=129121","adres":"Meylweg 52, 2550 Kontich","x":4.46712,"y":51.1401}},{"type":"Feature","geometry":{"type":"Point","coordinates":[4.46738,51.137]},"properties":{"categorie":"OpenluchtSportveld","categorietxt":"Openlucht sportveld","id":129122,"naam":"Tennisveld 2 TC De Meyl (Tenniscentrum De Meyl)","via":"http://poi.api.geopunt.be/v1/core?id=129122","adres":"Meylweg, 2550 Kontich","x":4.46738,"y":51.137}},{"type":"Feature","geometry":{"type":"Point","coordinates":[4.46701,51.1367]},"properties":{"categorie":"OpenluchtSportveld","categorietxt":"Openlucht sportveld","id":129123,"naam":"Tennisveld 3 TC De Meyl (Tenniscentrum De Meyl)","via":"http://poi.api.geopunt.be/v1/core?id=129123","adres":"Meylweg, 2550 Kontich","x":4.46701,"y":51.1367}},{"type":"Feature","geometry":{"type":"Point","coordinates":[4.46694,51.1368]},"properties":{"categorie":"OpenluchtSportveld","categorietxt":"Openlucht sportveld","id":129124,"naam":"Tennisveld 4 TC De Meyl (Tenniscentrum De Meyl)","via":"http://poi.api.geopunt.be/v1/core?id=129124","adres":"Meylweg, 2550 Kontich","x":4.46694,"y":51.1368}},{"type":"Feature","geometry":{"type":"Point","coordinates":[4.46685,51.1369]},"properties":{"categorie":"OpenluchtSportveld","categorietxt":"Openlucht sportveld","id":129125,"naam":"Tennisveld 5 TC De Meyl (Tenniscentrum De Meyl)","via":"http://poi.api.geopunt.be/v1/core?id=129125","adres":"Meylweg, 2550 Kontich","x":4.46685,"y":51.1369}},{"type":"Feature","geometry":{"type":"Point","coordinates":[4.46501,51.1015]},"properties":{"categorie":"OpenluchtSportveld","categorietxt":"Openlucht sportveld","id":129128,"naam":"Visvijver Diepe - Route (Visvijver Diepe-Route)","via":"http://poi.api.geopunt.be/v1/core?id=129128","adres":"Ferdinand Maesstraat, 2550 Kontich","x":4.46501,"y":51.1015}},{"type":"Feature","geometry":{"type":"Point","coordinates":[4.4608,51.1156]},"properties":{"categorie":"OpenluchtSportveld","categorietxt":"Openlucht sportveld","id":129129,"naam":"Voetbalveld Carrefour (Voetbalveld Carrefour)","via":"http://poi.api.geopunt.be/v1/core?id=129129","adres":"Pauwhoevestraat, 2550 Kontich","x":4.4608,"y":51.1156}},{"type":"Feature","geometry":{"type":"Point","coordinates":[4.43181,51.1379]},"properties":{"categorie":"OpenluchtSportveld","categorietxt":"Openlucht sportveld","id":129130,"naam":"Voetbalveld Groeninghe (Voetbalveld Groeninghe)","via":"http://poi.api.geopunt.be/v1/core?id=129130","adres":"Groeningenlei, 2550 Kontich","x":4.43181,"y":51.1379}},{"type":"Feature","geometry":{"type":"Point","coordinates":[4.43335,51.1288]},"properties":{"categorie":"OpenluchtSportveld","categorietxt":"Openlucht sportveld","id":129131,"naam":"Voetbalveld Sint Rita College Kontich (RIKO) (oefenveld) (Sint-Rita College)","via":"http://poi.api.geopunt.be/v1/core?id=129131","adres":"Pierstraat 3, 2550 Kontich","x":4.43335,"y":51.1288}},{"type":"Feature","geometry":{"type":"Point","coordinates":[4.45678,51.1044]},"properties":{"categorie":"OpenluchtSportveld","categorietxt":"Openlucht sportveld","id":129132,"naam":"Voetbalveld Veteranen Waarloos (Veteranen Waarloos)","via":"http://poi.api.geopunt.be/v1/core?id=129132","adres":"Ferdinand Maesstraat 95, 2550 Kontich","x":4.45678,"y":51.1044}},{"type":"Feature","geometry":{"type":"Point","coordinates":[4.48059,51.1242]},"properties":{"categorie":"OpenluchtSportveld","categorietxt":"Openlucht sportveld","id":129133,"naam":"Voetbalveld VK Kontich (Voetbalveld VK Kontich)","via":"http://poi.api.geopunt.be/v1/core?id=129133","adres":"Duffelshoek 122, 2550 Kontich","x":4.48059,"y":51.1242}},{"type":"Feature","geometry":{"type":"Point","coordinates":[4.43429,51.1293]},"properties":{"categorie":"OpenluchtSportveld","categorietxt":"Openlucht sportveld","id":129134,"naam":"Volleybalveld 1 Sint Rita College Kontich (RIKO) (Sint-Rita College)","via":"http://poi.api.geopunt.be/v1/core?id=129134","adres":"Pierstraat 3, 2550 Kontich","x":4.43429,"y":51.1293}},{"type":"Feature","geometry":{"type":"Point","coordinates":[4.43446,51.1296]},"properties":{"categorie":"OpenluchtSportveld","categorietxt":"Openlucht sportveld","id":129135,"naam":"Volleybalveld 2 Sint Rita College Kontich (RIKO) (Sint-Rita College)","via":"http://poi.api.geopunt.be/v1/core?id=129135","adres":"Pierstraat 3, 2550 Kontich","x":4.43446,"y":51.1296}},{"type":"Feature","geometry":{"type":"Point","coordinates":[4.44662,51.1423]},"properties":{"categorie":"OpenluchtSportveld","categorietxt":"Openlucht sportveld","id":129136,"naam":"Volleybalveld VTI Kontich (VTI)","via":"http://poi.api.geopunt.be/v1/core?id=129136","adres":"Edegemsesteenweg 129, 2550 Kontich","x":4.44662,"y":51.1423}},{"type":"Feature","geometry":{"type":"Point","coordinates":[4.45523,51.107]},"properties":{"categorie":"OpenluchtSportveld","categorietxt":"Openlucht sportveld","id":129137,"naam":"Basketbalveld Pastoriestraat Waarloos (Gemeentelijk Basketbalveld  Pastoriestraat Waarloos)","via":"http://poi.api.geopunt.be/v1/core?id=129137","adres":"Pastoriestraat, 2550 Kontich","x":4.45523,"y":51.107}},{"type":"Feature","geometry":{"type":"Point","coordinates":[4.45204,51.1071]},"properties":{"categorie":"OpenluchtSportveld","categorietxt":"Openlucht sportveld","id":129139,"naam":"Volleybalvelden Sint-Michielsschool (Sint-Michielsschool)","via":"http://poi.api.geopunt.be/v1/core?id=129139","adres":"Oude Baan 1, 2550 Kontich","x":4.45204,"y":51.1071}},{"type":"Feature","geometry":{"type":"Point","coordinates":[4.43275,51.1415]},"properties":{"categorie":"OpenluchtSportveld","categorietxt":"Openlucht sportveld","id":139777,"naam":"Indoor Tennisveld 1 Racing Beerschot THC (Sportcentrum Racing Beerschot THC)","via":"http://poi.api.geopunt.be/v1/core?id=139777","adres":"Groeningenlei 62, 2550 Kontich","x":4.43275,"y":51.1415}},{"type":"Feature","geometry":{"type":"Point","coordinates":[4.43299,51.1415]},"properties":{"categorie":"OpenluchtSportveld","categorietxt":"Openlucht sportveld","id":139778,"naam":"Indoor Tennisveld 2 Racing Beerschot THC (Sportcentrum Racing Beerschot THC)","via":"http://poi.api.geopunt.be/v1/core?id=139778","adres":"Groeningenlei 62, 2550 Kontich","x":4.43299,"y":51.1415}},{"type":"Feature","geometry":{"type":"Point","coordinates":[4.43221,51.1408]},"properties":{"categorie":"OpenluchtSportveld","categorietxt":"Openlucht sportveld","id":139781,"naam":"Petanqueterrein Immosports (Sportcentrum Racing Beerschot THC)","via":"http://poi.api.geopunt.be/v1/core?id=139781","adres":"Groeningenlei 62, 2550 Kontich","x":4.43221,"y":51.1408}},{"type":"Feature","geometry":{"type":"Point","coordinates":[4.46562,51.138]},"properties":{"categorie":"OpenluchtSportveld","categorietxt":"Openlucht sportveld","id":139782,"naam":"Ruiterijweide Leopold III (LRV Rijbaan Boutersem)","via":"http://poi.api.geopunt.be/v1/core?id=139782","adres":"Meylweg, 2550 Kontich","x":4.46562,"y":51.138}},{"type":"Feature","geometry":{"type":"Point","coordinates":[4.4333,51.1415]},"properties":{"categorie":"OpenluchtSportveld","categorietxt":"Openlucht sportveld","id":139784,"naam":"Tennisveld 1 Racing Beerschot THC (Sportcentrum Racing Beerschot THC)","via":"http://poi.api.geopunt.be/v1/core?id=139784","adres":"Groeningenlei 62, 2550 Kontich","x":4.4333,"y":51.1415}},{"type":"Feature","geometry":{"type":"Point","coordinates":[4.43352,51.1415]},"properties":{"categorie":"OpenluchtSportveld","categorietxt":"Openlucht sportveld","id":139785,"naam":"Tennisveld 2 Racing Beerschot THC (Sportcentrum Racing Beerschot THC)","via":"http://poi.api.geopunt.be/v1/core?id=139785","adres":"Groeningenlei 62, 2550 Kontich","x":4.43352,"y":51.1415}},{"type":"Feature","geometry":{"type":"Point","coordinates":[4.43356,51.1412]},"properties":{"categorie":"OpenluchtSportveld","categorietxt":"Openlucht sportveld","id":139786,"naam":"Tennisveld 3 Racing Beerschot THC (Sportcentrum Racing Beerschot THC)","via":"http://poi.api.geopunt.be/v1/core?id=139786","adres":"Groeningenlei 62, 2550 Kontich","x":4.43356,"y":51.1412}},{"type":"Feature","geometry":{"type":"Point","coordinates":[4.43334,51.1412]},"properties":{"categorie":"OpenluchtSportveld","categorietxt":"Openlucht sportveld","id":139787,"naam":"Tennisveld 4 Racing Beerschot THC (Sportcentrum Racing Beerschot THC)","via":"http://poi.api.geopunt.be/v1/core?id=139787","adres":"Groeningenlei 62, 2550 Kontich","x":4.43334,"y":51.1412}},{"type":"Feature","geometry":{"type":"Point","coordinates":[4.43302,51.1412]},"properties":{"categorie":"OpenluchtSportveld","categorietxt":"Openlucht sportveld","id":139788,"naam":"Tennisveld 5 Racing Beerschot THC (Sportcentrum Racing Beerschot THC)","via":"http://poi.api.geopunt.be/v1/core?id=139788","adres":"Groeningenlei 62, 2550 Kontich","x":4.43302,"y":51.1412}},{"type":"Feature","geometry":{"type":"Point","coordinates":[4.43278,51.1412]},"properties":{"categorie":"OpenluchtSportveld","categorietxt":"Openlucht sportveld","id":139789,"naam":"Tennisveld 6 Racing Beerschot THC (Sportcentrum Racing Beerschot THC)","via":"http://poi.api.geopunt.be/v1/core?id=139789","adres":"Groeningenlei 62, 2550 Kontich","x":4.43278,"y":51.1412}},{"type":"Feature","geometry":{"type":"Point","coordinates":[4.43228,51.1422]},"properties":{"categorie":"OpenluchtSportveld","categorietxt":"Openlucht sportveld","id":140269,"naam":"Hockeyveld 2 Racing Beerschot THC (Sportcentrum Racing Beerschot THC)","via":"http://poi.api.geopunt.be/v1/core?id=140269","adres":"Groeningenlei, 2550 Kontich","x":4.43228,"y":51.1422}},{"type":"Feature","geometry":{"type":"Point","coordinates":[4.43302,51.1406]},"properties":{"categorie":"OpenluchtSportveld","categorietxt":"Openlucht sportveld","id":140449,"naam":"Hockeyveld 1 Racing Beerschot THC (Sportcentrum Racing Beerschot THC)","via":"http://poi.api.geopunt.be/v1/core?id=140449","adres":"Groeningenlei 62, 2550 Kontich","x":4.43302,"y":51.1406}},{"type":"Feature","geometry":{"type":"Point","coordinates":[4.43317,51.1421]},"properties":{"categorie":"OpenluchtSportveld","categorietxt":"Openlucht sportveld","id":140453,"naam":"Tennisvelden TC Den Anjelier (Koninklijke Club De Anjelier)","via":"http://poi.api.geopunt.be/v1/core?id=140453","adres":"Prins Boudewijnlaan 5, 2550 Kontich","x":4.43317,"y":51.1421}},{"type":"Feature","geometry":{"type":"Point","coordinates":[4.45585,51.1044]},"properties":{"categorie":"OpenluchtSportveld","categorietxt":"Openlucht sportveld","id":204957,"naam":"Trapveld Veteranen Waarloos","via":"http://poi.api.geopunt.be/v1/core?id=204957","adres":"Ferdinand Maesstraat 95, 2550 Kontich","x":4.45585,"y":51.1044}},{"type":"Feature","geometry":{"type":"Point","coordinates":[4.42665,51.1401]},"properties":{"categorie":"OpenluchtSportveld","categorietxt":"Openlucht sportveld","id":204973,"naam":"Mountainbikeroute Kontich-Edegem Zandbergen","via":"http://poi.api.geopunt.be/v1/core?id=204973","adres":"Groeningenlei, 2550 Kontich","x":4.42665,"y":51.1401}},{"type":"Feature","geometry":{"type":"Point","coordinates":[4.43028,51.1447]},"properties":{"categorie":"OpenluchtSportveld","categorietxt":"Openlucht sportveld","id":221152,"naam":"BMX-parcours DirtE19 Trails (DirtE19)","via":"http://poi.api.geopunt.be/v1/core?id=221152","adres":"Groeningenlei, 2550 Kontich","x":4.43028,"y":51.1447}},{"type":"Feature","geometry":{"type":"Point","coordinates":[4.46758,51.1397]},"properties":{"categorie":"OpenluchtSportveld","categorietxt":"Openlucht sportveld","id":221210,"naam":"Trapveld FC VDP Sport VZW (VDP Sport vzw)","via":"http://poi.api.geopunt.be/v1/core?id=221210","adres":"Meylweg 52, 2550 Kontich","x":4.46758,"y":51.1397}},{"type":"Feature","geometry":{"type":"Point","coordinates":[4.46723,51.1384]},"properties":{"categorie":"OpenluchtSportveld","categorietxt":"Openlucht sportveld","id":228667,"naam":"Airzone Kontich (Airzone)","via":"http://poi.api.geopunt.be/v1/core?id=228667","adres":"Meylweg 41A, 2550 Kontich","x":4.46723,"y":51.1384}}]}